{
	"tiks": [
		{
			"lon": 36.9881254,
			"lat": 56.1909396,
			"desc": "г. Солнечногорск, ул. Банковская, дом 2 (администрация Солнечногорского района)",
			"phone": "(495) 994-00-75",
			"members": 11,
			"url": "http://www.moscow_reg.vybory.izbirkom.ru/region/moscow_reg?action=show_komissia&region=50&sub_region=50&type=100&vrnorg=250200072164&vrnkomis=450405319422",
			"name": "Территориальная избирательная комиссия Солнечногорского района"
		}
	],
	"uiks": [
		{
			"lon": 37.1263486147,
			"lat": 56.0070855981,
			"addr": "с.Алабушево, ул.Первомайская, д.35а, Алабушевская школа",
			"number": 2966,
			"count": 2471,
			"koib": true,
			"phone":"(495)536-05-67"
		},
		{
			"lon": 37.1431982517,
			"lat": 55.9806176435,
			"addr": "п. Андреевка, д. 9а, Андреевская школа",
			"number": 2967,
			"count": 1766,
			"koib": true,
			"phone":"(495)797-49-27"
		},
		{
			"lon": 37.1435630322,
			"lat": 55.980335525,
			"addr": "п. Андреевка, д. 9а, Андреевская школа",
			"number": 2968,
			"count": 2563,
			"koib": true,
			"phone":"(495)797-49-27 (495)536-37-34"
		},
		{
			"lon": 37.1431553364,
			"lat": 55.9804495732,
			"addr": "п. Андреевка, д. 9а, Андреевская школа",
			"number": 2969,
			"count": 2797,
			"koib": true,
			"phone":"(495)797-49-27 (495)536-08-08"
		},
		{
			"lon": 37.1318042278,
			"lat": 55.9796962491,
			"addr": "п. Андреевка, Дом культуры",
			"number": 2970,
			"count": 1347,
			"koib": true,
			"phone":"(499)504-29-09"
		},
		{
			"lon": 37.1019887924,
			"lat": 55.9855273748,
			"addr": "д. Голубое, ФГУЗ Центральная клиническая больница восстановительного лечения ФМБА России",
			"number": 2971,
			"count": 1733,
			"koib": true,
			"phone":"(499)504-40-85"
		},
		{
			"lon": 37.2323226929,
			"lat": 56.0384025574,
			"addr": "п. Менделееве, ул. Куйбышева, 7, Менделеевская школа №2",
			"number": 2972,
			"count": 2081,
			"koib": true,
			"phone":"(495)546-38-71"
		},
		{
			"lon": 37.2256976366,
			"lat": 56.0534433015,
			"addr": "д. Льялово, Дом спорта и творчества пансионата «Морозовка»",
			"number": 2973,
			"count": 697,
			"koib": true,
			"phone":"(495)380-86-96"
		},
		{
			"lon": 37.2325640917,
			"lat": 56.0399667618,
			"addr": "п. Менделеево, ул. Куйбышева, 11, ДК «Метролог» (малое фойе, 2-й этаж)",
			"number": 2974,
			"count": 2082,
			"koib": true,
			"phone":"(495)546-24-54"
		},
		{
			"lon": 37.232183218,
			"lat": 56.0401585464,
			"addr": "п. Менделеево, ул. Куйбышева, 11, ДК «Метролог» (большое фойе, 2-й этаж)",
			"number": 2975,
			"count": 2102,
			"koib": true,
			"phone":"(495)546-24-54"
		},
		{
			"lon": 37.0586657524,
			"lat": 56.0814000374,
			"addr": "п. Поварово, ул. Мехлесхоза, д. 1, административное здание Клинского филиала ФГУ «Мособллес»",
			"number": 2976,
			"count": 1902,
			"koib": false,
			"phone":"(4962)67-21-95 (4962)67-21-93"
		},
		{
			"lon": 37.0689547062,
			"lat": 56.0801158374,
			"addr": "п. Поварово, микрорайон № 2, Дом культуры",
			"number": 2977,
			"count": 1300,
			"koib": true,
			"phone":"(4962)67-23-21"
		},
		{
			"lon": 37.0665675402,
			"lat": 56.0661395381,
			"addr": "п. Поварово, микрорайон Поваровка, школа имени 8-Марта",
			"number": 2978,
			"count": 2002,
			"koib": false,
			"phone":"(4962)67-32-43"
		},
		{
			"lon": 37.0729780197,
			"lat": 56.0647410305,
			"addr": "п. Поварово, микрорайон Поваровка, Дом культуры «Геофизик»",
			"number": 2979,
			"count": 1568,
			"koib": true,
			"phone":"(4962)67-33-33"
		},
		{
			"lon": 37.2176778316,
			"lat": 56.0165199119,
			"addr": "п. Ржавки, стр.6, Ржавская средняя общеобразовательная школа",
			"number": 2980,
			"count": 1823,
			"koib": false,
			"phone":"(495)536-40-48 (495)994-68-84 (495)546-15-96 (495)546-00-73"
		},
		{
			"lon": 37.2175812721,
			"lat": 56.0168077632,
			"addr": "п. Ржавки, стр.6, Ржавская средняя общеобразовательная школа",
			"number": 2981,
			"count": 1864,
			"koib": false,
			"phone":"(495)536-40-48 (495)994-68-84 (495)546-15-96 (495)546-00-73"
		},
		{
			"lon": 36.9620043039,
			"lat": 56.2014911364,
			"addr": "Солнечногорск, ул. Вертлинская, д.17, лицей № 1 им. А. Блока",
			"number": 2982,
			"count": 2285,
			"koib": false,
			"phone":"(4962)64-47-29"
		},
		{
			"lon": 36.9627714157,
			"lat": 56.1976175969,
			"addr": "Солнечногорск, ул. Красная, д.176, Дом детского творчества “Буревестник”",
			"number": 2983,
			"count": 2167,
			"koib": false,
			"phone":"(4962)64-24-39"
		},
		{
			"lon": 36.9701582193,
			"lat": 56.1911051104,
			"addr": "Солнечногорск, ул. Красная, д.113, Городской центр народного творчества и досуга «Лепсе»",
			"number": 2984,
			"count": 2371,
			"koib": false,
			"phone":"(495)994-12-86 (4962)61-12-86"
		},
		{
			"lon": 36.9705444574,
			"lat": 56.1913588256,
			"addr": "Солнечногорск, ул. Красная, д.113, Городской центр народного творчества и досуга «Лепсе»",
			"number": 2985,
			"count": 2518,
			"koib": false,
			"phone":"(495)994-12-86 (4962)61-12-86"
		},
		{
			"lon": 36.9789075851,
			"lat": 56.1891678651,
			"addr": "Солнечногорск, ул. Дзержинского, д.5, школа № 5",
			"number": 2986,
			"count": 2249,
			"koib": false,
			"phone":"(4962)64-47-98"
		},
		{
			"lon": 36.9869112968,
			"lat": 56.189406668,
			"addr": "Солнечногорск, ул. Банковская, 6а, гимназия № 6",
			"number": 2987,
			"count": 2172,
			"koib": false,
			"phone":"(4962)64-10-75"
		},
		{
			"lon": 36.9853073359,
			"lat": 56.1858931311,
			"addr": "Солнечногорск, ул. Дзержинского, 21/19, детская библиотека",
			"number": 2988,
			"count": 2602,
			"koib": false,
			"phone":"(4962)64-46-64"
		},
		{
			"lon": 36.9942981005,
			"lat": 56.1929139137,
			"addr": "Солнечногорск-1, ул. Драгунского, д. 1, Дом культуры «Выстрел»",
			"number": 2989,
			"count": 2299,
			"koib": false,
			"phone":"(4962)63-83-46"
		},
		{
			"lon": 36.9950866699,
			"lat": 56.1927079651,
			"addr": "Солнечногорск-1, ул. Драгунского, д. 1, Дом культуры «Выстрел»",
			"number": 2990,
			"count": 2242,
			"koib": false,
			"phone":"(4962)63-83-51"
		},
		{
			"lon": 36.9983160496,
			"lat": 56.1785933792,
			"addr": "Солнечногорск, микрорайон Рекинцо, д. 29, школа № 4",
			"number": 2991,
			"count": 2295,
			"koib": false,
			"phone":"(4962)64-48-58"
		},
		{
			"lon": 36.9991099834,
			"lat": 56.1786053227,
			"addr": "Солнечногорск, микрорайон Рекинцо, д. 29, школа № 4",
			"number": 2992,
			"count": 1568,
			"koib": false,
			"phone":"(4962)64-49-82"
		},
		{
			"lon": 37.0023393631,
			"lat": 56.1810984403,
			"addr": "Солнечногорск, микрорайон Рекинцо, д.30, здание ОАО «Эксплуатирующая компания Солнечногорского района»",
			"number": 2993,
			"count": 2123,
			"koib": false,
			"phone":"(495)994-16-45 (4962)61-16-45"
		},
		{
			"lon": 36.9820350409,
			"lat": 56.181349236,
			"addr": "Солнечногорск, ул. Почтовая, д. 33, Пенсионный фонд",
			"number": 2994,
			"count": 1785,
			"koib": false,
			"phone":"(4962)64-84-21"
		},
		{
			"lon": 36.974465847,
			"lat": 56.1852154621,
			"addr": "Солнечногорск, ул. Советская, д. 3, Солнечногорская школа искусств",
			"number": 2995,
			"count": 2423,
			"koib": false,
			"phone":"(4962)64-92-92"
		},
		{
			"lon": 36.9741386175,
			"lat": 56.1866782569,
			"addr": "Солнечногорск, ул. Почтовая, д. 9, лицей № 7",
			"number": 2996,
			"count": 2214,
			"koib": false,
			"phone":"(4962)64-47-11"
		},
		{
			"lon": 36.9747769833,
			"lat": 56.1755835068,
			"addr": "Солнечногорск, ул. Стеклозаводская, д.1, столовая ОАО “Солстек”",
			"number": 2997,
			"count": 745,
			"koib": false,
			"phone":"(4962)64-39-09"
		},
		{
			"lon": 36.9652283192,
			"lat": 56.1834122669,
			"addr": "Солнечногорск, ул. Обуховская, д. 9а, административное здание ОАО “Солнечногорский Автодор”",
			"number": 2998,
			"count": 1131,
			"koib": false,
			"phone":"(495)994-12-24 (4962)61-12-24"
		},
		{
			"lon": 36.962556839,
			"lat": 56.1818358944,
			"addr": "Солнечногорск, ул. Обуховская, д. 2/96, школа № 2",
			"number": 2999,
			"count": 1458,
			"koib": false,
			"phone":"(4962)64-12-06"
		},
		{
			"lon": 36.9536197186,
			"lat": 56.1733110162,
			"addr": "Солнечногорск, ул. Школьная, д. 1, лицей № 8",
			"number": 3000,
			"count": 2234,
			"koib": false,
			"phone":"(495)994-12-13 (4962)61-12-13"
		},
		{
			"lon": 36.9466030598,
			"lat": 56.184355671,
			"addr": "Солнечногорск, ул. Рабухина, д.7, ГУЗ туберкулезная больница № 11",
			"number": 3001,
			"count": 340,
			"koib": false,
			"phone":"(4962)64-61-22"
		},
		{
			"lon": 37.0293921232,
			"lat": 56.2165548285,
			"addr": "Солнечногорск-7, Тимоново, Тимоновская средняя общеобразовательная школа",
			"number": 3002,
			"count": 197,
			"koib": true,
			"phone":"(4962)63-66-07"
		},
		{
			"lon": 37.0358133316,
			"lat": 56.2005451694,
			"addr": "Солнечногорск-2 (в/г Сенеж), солдатский клуб войсковой части 92154",
			"number": 3003,
			"count": 1595,
			"koib": false,
			"phone":"994-18-13 доб. 123"
		},
		{
			"lon": 37.0569062233,
			"lat": 56.1499362762,
			"addr": "п/о Гришино, клуб санатория Министерства Обороны",
			"number": 3004,
			"count": 1462,
			"koib": false,
			"phone":"(4962)63-25-50"
		},
		{
			"lon": 37.0246660709,
			"lat": 56.2159045478,
			"addr": "Солнечногорск-7, Тимоново, ул. Подмосковная, д.50, Культурно-досуговый центр «Тимоново»",
			"number": 3005,
			"count": 1811,
			"koib": false,
			"phone":"(4962)63-66-66"
		},
		{
			"lon": 37.0246660709,
			"lat": 56.2156480119,
			"addr": "Солнечногорск-7, Тимоново, ул. Подмосковная, д.50, Культурно-досуговый центр «Тимоново»",
			"number": 3006,
			"count": 2004,
			"koib": false,
			"phone":"(4962)63-66-66"
		},
		{
			"lon": 37.0293599367,
			"lat": 56.216155116,
			"addr": "Солнечногорск-7, Тимоново, Тимоновская средняя общеобразовательная школа",
			"number": 3007,
			"count": 2441,
			"koib": false,
			"phone":"(4962)63-66-07"
		},
		{
			"lon": 36.8631112576,
			"lat": 56.1938421608,
			"addr": "Солнечногорск-25 (в/г Ожогино-2), клуб",
			"number": 3008,
			"count": 857,
			"koib": true,
			"phone":"(495)994-06-29 (4962)61-06-29"
		},
		{
			"lon": 36.8944609165,
			"lat": 56.1417002007,
			"addr": "д. Кривцово, детский подростковый спортивный клуб «Истра» Дом культуры «Истра»",
			"number": 3009,
			"count": 1091,
			"koib": true,
			"phone":"(4962)67-14-94"
		},
		{
			"lon": 36.8947935104,
			"lat": 56.14181975,
			"addr": "д. Кривцово, Дом культуры «Истра»",
			"number": 3010,
			"count": 1222,
			"koib": true,
			"phone":"(4962)67-10-10"
		},
		{
			"lon": 36.8141448498,
			"lat": 56.1898006894,
			"addr": "д.Замятино (Никулино), Дом культуры",
			"number": 3011,
			"count": 755,
			"koib": true,
			"phone":"(4962)66-50-16"
		},
		{
			"lon": 37.1982318163,
			"lat": 55.928000011,
			"addr": "д. Брёхово, Кутузовская (Брёховская) средняя общеобразовательная школа",
			"number": 3012,
			"count": 865,
			"koib": true,
			"phone":"(905)563-66-91 (962)911-82-26"
		},
		{
			"lon": 37.232247591,
			"lat": 55.9084544231,
			"addr": "д. Благовещенка, Липовая аллея, д. 1, магазин «М 5»",
			"number": 3013,
			"count": 781,
			"koib": true,
			"phone":"(965)395-40-18 (925)286-82-38"
		},
		{
			"lon": 37.2432929277,
			"lat": 55.9285950619,
			"addr": "д. Середниково, Манеж усадьбы Середниково",
			"number": 3014,
			"count": 779,
			"koib": true,
			"phone":"(916)225-15-32 (925)286-82-39"
		},
		{
			"lon": 37.343763113,
			"lat": 55.9945169294,
			"addr": "п. Лунёво, Дом культуры «Лунёво»",
			"number": 3015,
			"count": 1368,
			"koib": false,
			"phone":"(495)578-07-12"
		},
		{
			"lon": 37.343403697,
			"lat": 55.994543931,
			"addr": "п. Лунёво, Дом культуры «Лунёво»",
			"number": 3016,
			"count": 1578,
			"koib": false,
			"phone":"(495)578-07-12"
		},
		{
			"lon": 37.3355877399,
			"lat": 56.0096708173,
			"addr": "д. Поярково, Поярковская начальная школа",
			"number": 3017,
			"count": 755,
			"koib": false,
			"phone":"(495)592-85-81"
		},
		{
			"lon": 37.303776741,
			"lat": 55.9741824307,
			"addr": "д. Черная Грязь., Складской комплекс Многофункционального Логистического парка «МЛП»",
			"number": 3018,
			"count": 529,
			"koib": false,
			"phone":"(495)567-93-69"
		},
		{
			"lon": 37.0704996586,
			"lat": 56.1328525225,
			"addr": "д. Пешки, сельский Дом культуры",
			"number": 3019,
			"count": 936,
			"koib": true,
			"phone":"(4962)63-77-04"
		},
		{
			"lon": 37.0440798998,
			"lat": 56.1109607178,
			"addr": "п. Жуково, микрорайон Берёзки, Дом культуры",
			"number": 3020,
			"count": 930,
			"koib": true,
			"phone":"(495)994-44-48 (4962)61-44-48"
		},
		{
			"lon": 37.1137958765,
			"lat": 56.0926297243,
			"addr": "д. Ложки, Центральный сельский Дом культуры",
			"number": 3021,
			"count": 1693,
			"koib": true,
			"phone":"(4962)63-76-94"
		},
		{
			"lon": 37.1257209778,
			"lat": 56.0739606626,
			"addr": "д. Радумля, микрорайон Механического завода № 1, д. 16, администрация сельского поселения Пешковское",
			"number": 3022,
			"count": 2116,
			"koib": true,
			"phone":"(4962)63-73-42"
		},
		{
			"lon": 37.1490561962,
			"lat": 56.0929589034,
			"addr": "п. Майдарово, Майдаровская школа-сад № 46",
			"number": 3023,
			"count": 1222,
			"koib": true,
			"phone":"(4962)63-71-31"
		},
		{
			"lon": 37.1715652943,
			"lat": 56.0316951448,
			"addr": "д. Чашниково, Чашниковская средняя общеобразовательная школа",
			"number": 3024,
			"count": 2150,
			"koib": true,
			"phone":"(495)536-43-46"
		},
		{
			"lon": 36.9393074512,
			"lat": 56.2229049266,
			"addr": "п. Смирновка, администрация сельского поселения Смирновское, кабинет № 7",
			"number": 3025,
			"count": 1511,
			"koib": false,
			"phone":"(495)994-09-54 (4962)61-09-54"
		},
		{
			"lon": 36.9953012466,
			"lat": 56.2775902876,
			"addr": "д. Толстяково, филиал Дома детского творчества «Буревестник»",
			"number": 3026,
			"count": 616,
			"koib": false,
			"phone":"(4962)63-41-21"
		},
		{
			"lon": 37.0042383671,
			"lat": 56.0197041474,
			"addr": "д. Лыткино, школа-сад № 28",
			"number": 3027,
			"count": 670,
			"koib": true,
			"phone":"(4962)67-96-87"
		},
		{
			"lon": 36.9031083584,
			"lat": 56.0392655413,
			"addr": "д. Соколово, Дом культуры",
			"number": 3028,
			"count": 310,
			"koib": true,
			"phone":"(4962)63-36-64"
		},
		{
			"lon": 36.9138264656,
			"lat": 56.0794243274,
			"addr": "д. Новая, школа «Лесные озера»",
			"number": 3029,
			"count": 733,
			"koib": true,
			"phone":"(4962)63-37-41"
		},
		{
			"lon": 36.8851804733,
			"lat": 56.1270526018,
			"addr": "п. Лесное озеро, домоуправление ОАО санаторий «Лесное озеро»",
			"number": 3030,
			"count": 497,
			"koib": true,
			"phone":"(4962)63-48-00"
		},
		{
			"lon": 36.9101786613,
			"lat": 56.0776041898,
			"addr": "д. Новая, Дом культуры",
			"number": 3031,
			"count": 382,
			"koib": true,
			"phone":"(4962)63-36-43"
		},
		{
			"lon": 36.8708467484,
			"lat": 56.1244991636,
			"addr": "Солнечногорск-30 (в/г Миронцево), ул. Центральная, клуб",
			"number": 3032,
			"count": 1574,
			"koib": true,
			"phone":"(495)994-34-00, (4962)61-34-00"
		}
	]
}
